[{"id": "MLjDJR4N-h_6_LBJwnHyLQ", "alias": "ichi-tokyo-rochester", "name": "Ichi Tokyo", "image_url": "https://s3-media4.fl.yelpcdn.com/bphoto/jVMnFEFHL3vWvXYu8BgNww/o.jpg", "is_closed": false, "url": "https://www.yelp.com/biz/ichi-tokyo-rochester?adjust_creative=Qauz7cdm5F8D_pDp7A48cQ&utm_campaign=yelp_api_v3&utm_medium=api_v3_business_search&utm_source=Qauz7cdm5F8D_pDp7A48cQ", "review_count": 168, "categories": [{"alias": "japanese", "title": "Japanese"}, {"alias": "sushi", "title": "Sushi Bars"}], "rating": 4.0, "coordinates": {"latitude": 43.9923896789551, "longitude": -92.4621200561523}, "transactions": ["delivery", "pickup"], "price": "$$", "location": {"address1": "102 20th St SE", "address2": "Ste 300", "address3": "", "city": "Rochester", "zip_code": "55904", "country": "US", "state": "MN", "display_address": ["102 20th St SE", "Ste 300", "Rochester, MN 55904"]}, "phone": "+15072882577", "display_phone": "(507) 288-2577", "distance": 3048.998621233667}, {"id": "q-nxw7sQSdaqQmZcCuiMfQ", "alias": "pho-chau-rochester", "name": "Pho Chau", "image_url": "https://s3-media3.fl.yelpcdn.com/bphoto/uKn8Tulwr_OiQUUML7vC-g/o.jpg", "is_closed": false, "url": "https://www.yelp.com/biz/pho-chau-rochester?adjust_creative=Qauz7cdm5F8D_pDp7A48cQ&utm_campaign=yelp_api_v3&utm_medium=api_v3_business_search&utm_source=Qauz7cdm5F8D_pDp7A48cQ", "review_count": 374, "categories": [{"alias": "vietnamese", "title": "Vietnamese"}, {"alias": "chinese", "title": "Chinese"}, {"alias": "thai", "title": "Thai"}], "rating": 4.0, "coordinates": {"latitude": 44.033622, "longitude": -92.462526}, "transactions": ["delivery", "pickup"], "price": "$", "location": {"address1": "1014 Broadway Ave N", "address2": "", "address3": "", "city": "Rochester", "zip_code": "55906", "country": "US", "state": "MN", "display_address": ["1014 Broadway Ave N", "Rochester, MN 55906"]}, "phone": "+15072813342", "display_phone": "(507) 281-3342", "distance": 2262.723330413408}, {"id": "JlowEYIonJ-rWLLqQdm_aQ", "alias": "asia-fusion-rochester-2", "name": "Asia Fusion", "image_url": "https://s3-media3.fl.yelpcdn.com/bphoto/Wm86-oFrqV7VPbMWiH-4rA/o.jpg", "is_closed": false, "url": "https://www.yelp.com/biz/asia-fusion-rochester-2?adjust_creative=Qauz7cdm5F8D_pDp7A48cQ&utm_campaign=yelp_api_v3&utm_medium=api_v3_business_search&utm_source=Qauz7cdm5F8D_pDp7A48cQ", "review_count": 78, "categories": [{"alias": "asianfusion", "title": "Asian Fusion"}, {"alias": "ramen", "title": "Ramen"}, {"alias": "thai", "title": "Thai"}], "rating": 4.0, "coordinates": {"latitude": 44.052304, "longitude": -92.521926}, "transactions": ["delivery", "pickup"], "price": "$", "location": {"address1": "2711 Commerce Dr NW", "address2": "", "address3": null, "city": "Rochester", "zip_code": "55901", "country": "US", "state": "MN", "display_address": ["2711 Commerce Dr NW", "Rochester, MN 55901"]}, "phone": "+15072587992", "display_phone": "(507) 258-7992", "distance": 5227.646429134427}, {"id": "egqrH1I4WGdCZaWMUcWj5Q", "alias": "thai-pop-rochester", "name": "Thai Pop", "image_url": "https://s3-media2.fl.yelpcdn.com/bphoto/7AU9IN-YjAZ6-bZJlIdg5Q/o.jpg", "is_closed": false, "url": "https://www.yelp.com/biz/thai-pop-rochester?adjust_creative=Qauz7cdm5F8D_pDp7A48cQ&utm_campaign=yelp_api_v3&utm_medium=api_v3_business_search&utm_source=Qauz7cdm5F8D_pDp7A48cQ", "review_count": 41, "categories": [{"alias": "thai", "title": "Thai"}, {"alias": "popuprestaurants", "title": "Pop-Up Restaurants"}], "rating": 4.5, "coordinates": {"latitude": 44.02030690857195, "longitude": -92.46335371272612}, "transactions": [], "location": {"address1": "4 3rd St SW", "address2": "", "address3": null, "city": "Rochester", "zip_code": "55902", "country": "US", "state": "MN", "display_address": ["4 3rd St SW", "Rochester, MN 55902"]}, "phone": "+15079442025", "display_phone": "(507) 944-2025", "distance": 1288.9339440912768}, {"id": "Oq9fbffSimDnpO3JyiSYvQ", "alias": "wabi-sabi-rochester", "name": "Wabi Sabi", "image_url": "https://s3-media2.fl.yelpcdn.com/bphoto/kMhifdh1_cHCPHP9vQH2XA/o.jpg", "is_closed": false, "url": "https://www.yelp.com/biz/wabi-sabi-rochester?adjust_creative=Qauz7cdm5F8D_pDp7A48cQ&utm_campaign=yelp_api_v3&utm_medium=api_v3_business_search&utm_source=Qauz7cdm5F8D_pDp7A48cQ", "review_count": 7, "categories": [{"alias": "sushi", "title": "Sushi Bars"}, {"alias": "asianfusion", "title": "Asian Fusion"}, {"alias": "noodles", "title": "Noodles"}], "rating": 4.0, "coordinates": {"latitude": 44.010489, "longitude": -92.441017}, "transactions": ["delivery"], "location": {"address1": "1505 12th St SE", "address2": "", "address3": null, "city": "Rochester", "zip_code": "55904", "country": "US", "state": "MN", "display_address": ["1505 12th St SE", "Rochester, MN 55904"]}, "phone": "+15072581058", "display_phone": "(507) 258-1058", "distance": 3105.412693215826}, {"id": "rcK5s_zbS-ppa8fwguFN4A", "alias": "ootori-sushi-rochester", "name": "Ootori Sushi", "image_url": "https://s3-media1.fl.yelpcdn.com/bphoto/xsc9edrX6VQKLOKPsEghPw/o.jpg", "is_closed": false, "url": "https://www.yelp.com/biz/ootori-sushi-rochester?adjust_creative=Qauz7cdm5F8D_pDp7A48cQ&utm_campaign=yelp_api_v3&utm_medium=api_v3_business_search&utm_source=Qauz7cdm5F8D_pDp7A48cQ", "review_count": 75, "categories": [{"alias": "sushi", "title": "Sushi Bars"}, {"alias": "japanese", "title": "Japanese"}], "rating": 4.0, "coordinates": {"latitude": 44.0513191223145, "longitude": -92.5213317871094}, "transactions": ["delivery", "pickup"], "price": "$$", "location": {"address1": "2665 Commerce Dr NW", "address2": "Ste 100", "address3": null, "city": "Rochester", "zip_code": "55901", "country": "US", "state": "MN", "display_address": ["2665 Commerce Dr NW", "Ste 100", "Rochester, MN 55901"]}, "phone": "+15072587888", "display_phone": "(507) 258-7888", "distance": 5114.152861487578}, {"id": "A3gGr3ieELgCiqQFVtNemw", "alias": "pho-tai-rochester", "name": "Pho Tai", "image_url": "https://s3-media3.fl.yelpcdn.com/bphoto/v4DsfjyszJlsFBMGZ7l9pg/o.jpg", "is_closed": false, "url": "https://www.yelp.com/biz/pho-tai-rochester?adjust_creative=Qauz7cdm5F8D_pDp7A48cQ&utm_campaign=yelp_api_v3&utm_medium=api_v3_business_search&utm_source=Qauz7cdm5F8D_pDp7A48cQ", "review_count": 106, "categories": [{"alias": "vietnamese", "title": "Vietnamese"}], "rating": 3.5, "coordinates": {"latitude": 44.0614351, "longitude": -92.4885333}, "transactions": ["delivery"], "price": "$", "location": {"address1": "1726 37th St NW", "address2": "", "address3": "", "city": "Rochester", "zip_code": "55901", "country": "US", "state": "MN", "display_address": ["1726 37th St NW", "Rochester, MN 55901"]}, "phone": "+15072819993", "display_phone": "(507) 281-9993", "distance": 4944.289304053275}, {"id": "Xemk6kF9AYNKFpzimZ3D6A", "alias": "asian-pacific-market-rochester-2", "name": "Asian Pacific Market", "image_url": "https://s3-media2.fl.yelpcdn.com/bphoto/EIkKv20aG2RuY0ViyH1rSg/o.jpg", "is_closed": false, "url": "https://www.yelp.com/biz/asian-pacific-market-rochester-2?adjust_creative=Qauz7cdm5F8D_pDp7A48cQ&utm_campaign=yelp_api_v3&utm_medium=api_v3_business_search&utm_source=Qauz7cdm5F8D_pDp7A48cQ", "review_count": 20, "categories": [{"alias": "grocery", "title": "Grocery"}], "rating": 4.0, "coordinates": {"latitude": 44.06638, "longitude": -92.48805}, "transactions": [], "price": "$", "location": {"address1": "4136 18th Ave NW", "address2": null, "address3": null, "city": "Rochester", "zip_code": "55901", "country": "US", "state": "MN", "display_address": ["4136 18th Ave NW", "Rochester, MN 55901"]}, "phone": "+15072812410", "display_phone": "(507) 281-2410", "distance": 5543.888165846846}, {"id": "gVBAFPrhTD8HC4WJqgb_2Q", "alias": "mango-thai-rochester", "name": "Mango Thai", "image_url": "https://s3-media2.fl.yelpcdn.com/bphoto/6y3td4_XAXD8gP_6tR5nzg/o.jpg", "is_closed": false, "url": "https://www.yelp.com/biz/mango-thai-rochester?adjust_creative=Qauz7cdm5F8D_pDp7A48cQ&utm_campaign=yelp_api_v3&utm_medium=api_v3_business_search&utm_source=Qauz7cdm5F8D_pDp7A48cQ", "review_count": 303, "categories": [{"alias": "thai", "title": "Thai"}, {"alias": "asianfusion", "title": "Asian Fusion"}, {"alias": "sushi", "title": "Sushi Bars"}], "rating": 3.5, "coordinates": {"latitude": 44.019815, "longitude": -92.462653}, "transactions": ["delivery"], "price": "$$", "location": {"address1": "318 S Broadway", "address2": "", "address3": "", "city": "Rochester", "zip_code": "55904", "country": "US", "state": "MN", "display_address": ["318 S Broadway", "Rochester, MN 55904"]}, "phone": "+15072882360", "display_phone": "(507) 288-2360", "distance": 1328.6125382892114}, {"id": "EmkAFd7eIgPh8-cD9nQXdA", "alias": "china-1-rochester", "name": "China 1", "image_url": "https://s3-media2.fl.yelpcdn.com/bphoto/eq9j60BEnNfU5ya83aEieQ/o.jpg", "is_closed": false, "url": "https://www.yelp.com/biz/china-1-rochester?adjust_creative=Qauz7cdm5F8D_pDp7A48cQ&utm_campaign=yelp_api_v3&utm_medium=api_v3_business_search&utm_source=Qauz7cdm5F8D_pDp7A48cQ", "review_count": 76, "categories": [{"alias": "chinese", "title": "Chinese"}], "rating": 4.5, "coordinates": {"latitude": 44.02873743181658, "longitude": -92.48000098773839}, "transactions": ["delivery"], "price": "$", "location": {"address1": "1117 Civic Center Dr", "address2": "", "address3": "", "city": "Rochester", "zip_code": "55901", "country": "US", "state": "MN", "display_address": ["1117 Civic Center Dr", "Rochester, MN 55901"]}, "phone": "+15072811588", "display_phone": "(507) 281-1588", "distance": 1312.1779173792459}, {"id": "YrerE1-lKrEwNensSEe8RQ", "alias": "kingdom-buffet-rochester", "name": "Kingdom Buffet", "image_url": "https://s3-media3.fl.yelpcdn.com/bphoto/iHXM_ddKuB7oSVvTd_iWZA/o.jpg", "is_closed": false, "url": "https://www.yelp.com/biz/kingdom-buffet-rochester?adjust_creative=Qauz7cdm5F8D_pDp7A48cQ&utm_campaign=yelp_api_v3&utm_medium=api_v3_business_search&utm_source=Qauz7cdm5F8D_pDp7A48cQ", "review_count": 38, "categories": [{"alias": "chinese", "title": "Chinese"}], "rating": 3.5, "coordinates": {"latitude": 44.040308, "longitude": -92.4616248}, "transactions": ["delivery", "pickup"], "price": "$", "location": {"address1": "1639 N Broadway", "address2": "", "address3": "", "city": "Rochester", "zip_code": "55906", "country": "US", "state": "MN", "display_address": ["1639 N Broadway", "Rochester, MN 55906"]}, "phone": "+15072820211", "display_phone": "(507) 282-0211", "distance": 2868.9216645223482}, {"id": "_NfxxUt6YuXBmr40UKvQQQ", "alias": "ichi-tokyo-rochester-2", "name": "Ichi Tokyo", "image_url": "https://s3-media1.fl.yelpcdn.com/bphoto/EJRVhUbWFPCMFj1h21Jbjw/o.jpg", "is_closed": false, "url": "https://www.yelp.com/biz/ichi-tokyo-rochester-2?adjust_creative=Qauz7cdm5F8D_pDp7A48cQ&utm_campaign=yelp_api_v3&utm_medium=api_v3_business_search&utm_source=Qauz7cdm5F8D_pDp7A48cQ", "review_count": 49, "categories": [{"alias": "sushi", "title": "Sushi Bars"}, {"alias": "japanese", "title": "Japanese"}], "rating": 4.0, "coordinates": {"latitude": 44.0596146287801, "longitude": -92.4959122469833}, "transactions": ["delivery", "pickup"], "price": "$$", "location": {"address1": "3499 22nd Ave NW", "address2": "", "address3": "", "city": "Rochester", "zip_code": "55901", "country": "US", "state": "MN", "display_address": ["3499 22nd Ave NW", "Rochester, MN 55901"]}, "phone": "+15072816882", "display_phone": "(507) 281-6882", "distance": 4935.547493933455}, {"id": "bFH6Aet1IAdQ4U_Whu9NgQ", "alias": "zen-fusion-hibatchi-lounge-rochester", "name": "Zen Fusion Hibatchi + Lounge", "image_url": "https://s3-media4.fl.yelpcdn.com/bphoto/8OHl3uDP3Acb5ov7GlsZPQ/o.jpg", "is_closed": false, "url": "https://www.yelp.com/biz/zen-fusion-hibatchi-lounge-rochester?adjust_creative=Qauz7cdm5F8D_pDp7A48cQ&utm_campaign=yelp_api_v3&utm_medium=api_v3_business_search&utm_source=Qauz7cdm5F8D_pDp7A48cQ", "review_count": 23, "categories": [{"alias": "japanese", "title": "Japanese"}, {"alias": "bars", "title": "Bars"}, {"alias": "newamerican", "title": "American (New)"}], "rating": 3.0, "coordinates": {"latitude": 44.0442580704, "longitude": -92.52302}, "transactions": ["delivery", "pickup"], "location": {"address1": "2043 Superior Dr NW", "address2": null, "address3": "", "city": "Rochester", "zip_code": "55901", "country": "US", "state": "MN", "display_address": ["2043 Superior Dr NW", "Rochester, MN 55901"]}, "phone": "+15072885283", "display_phone": "(507) 288-5283", "distance": 4659.481208411452}, {"id": "p7B0ENQy-xrTbKACDJYqcg", "alias": "asian-food-store-rochester", "name": "Asian Food Store", "image_url": "https://s3-media1.fl.yelpcdn.com/bphoto/QuH7twmcvcOffmc4u9fC4Q/o.jpg", "is_closed": false, "url": "https://www.yelp.com/biz/asian-food-store-rochester?adjust_creative=Qauz7cdm5F8D_pDp7A48cQ&utm_campaign=yelp_api_v3&utm_medium=api_v3_business_search&utm_source=Qauz7cdm5F8D_pDp7A48cQ", "review_count": 11, "categories": [{"alias": "grocery", "title": "Grocery"}, {"alias": "intlgrocery", "title": "International Grocery"}], "rating": 3.0, "coordinates": {"latitude": 44.0308876037598, "longitude": -92.4780197143555}, "transactions": [], "price": "$", "location": {"address1": "1010 7th St NW", "address2": "", "address3": "", "city": "Rochester", "zip_code": "55901", "country": "US", "state": "MN", "display_address": ["1010 7th St NW", "Rochester, MN 55901"]}, "phone": "+15075369097", "display_phone": "(507) 536-9097", "distance": 1554.5623829071214}, {"id": "jbdtHAdTzwROY6LTWLafwg", "alias": "star-ocean-buffet-rochester", "name": "Star Ocean Buffet", "image_url": "https://s3-media1.fl.yelpcdn.com/bphoto/MaE5TcagWzWFrNGI2yabVg/o.jpg", "is_closed": false, "url": "https://www.yelp.com/biz/star-ocean-buffet-rochester?adjust_creative=Qauz7cdm5F8D_pDp7A48cQ&utm_campaign=yelp_api_v3&utm_medium=api_v3_business_search&utm_source=Qauz7cdm5F8D_pDp7A48cQ", "review_count": 71, "categories": [{"alias": "buffets", "title": "Buffets"}], "rating": 3.5, "coordinates": {"latitude": 44.004532, "longitude": -92.4839}, "transactions": [], "price": "$$", "location": {"address1": "1300 Salem Rd SW", "address2": "", "address3": null, "city": "Rochester", "zip_code": "55902", "country": "US", "state": "MN", "display_address": ["1300 Salem Rd SW", "Rochester, MN 55902"]}, "phone": "+15073226343", "display_phone": "(507) 322-6343", "distance": 1429.6027061030898}, {"id": "QAoGYzLKeNzEZLsXyNaxPA", "alias": "hunan-chinese-restaurant-rochester", "name": "Hunan Chinese Restaurant", "image_url": "https://s3-media2.fl.yelpcdn.com/bphoto/myEVUg6pfdsl3tYZxnybGA/o.jpg", "is_closed": false, "url": "https://www.yelp.com/biz/hunan-chinese-restaurant-rochester?adjust_creative=Qauz7cdm5F8D_pDp7A48cQ&utm_campaign=yelp_api_v3&utm_medium=api_v3_business_search&utm_source=Qauz7cdm5F8D_pDp7A48cQ", "review_count": 74, "categories": [{"alias": "chinese", "title": "Chinese"}], "rating": 3.5, "coordinates": {"latitude": 44.0136255, "longitude": -92.4629022}, "transactions": ["delivery"], "price": "$$", "location": {"address1": "844 S Broadway", "address2": "", "address3": "", "city": "Rochester", "zip_code": "55904", "country": "US", "state": "MN", "display_address": ["844 S Broadway", "Rochester, MN 55904"]}, "phone": "+15072870002", "display_phone": "(507) 287-0002", "distance": 1323.784559352342}, {"id": "OpUbaJ3Lt8xna4erqlYLkQ", "alias": "huhot-mongolian-grill-rochester", "name": "HuHot Mongolian Grill", "image_url": "https://s3-media3.fl.yelpcdn.com/bphoto/A8lNdKm44oymGOlc8PiECQ/o.jpg", "is_closed": false, "url": "https://www.yelp.com/biz/huhot-mongolian-grill-rochester?adjust_creative=Qauz7cdm5F8D_pDp7A48cQ&utm_campaign=yelp_api_v3&utm_medium=api_v3_business_search&utm_source=Qauz7cdm5F8D_pDp7A48cQ", "review_count": 73, "categories": [{"alias": "chinese", "title": "Chinese"}, {"alias": "asianfusion", "title": "Asian Fusion"}, {"alias": "mongolian", "title": "Mongolian"}], "rating": 3.5, "coordinates": {"latitude": 44.00491, "longitude": -92.48058}, "transactions": ["delivery", "pickup"], "price": "$$", "location": {"address1": "102 Apache Mall", "address2": "", "address3": "", "city": "Rochester", "zip_code": "55902", "country": "US", "state": "MN", "display_address": ["102 Apache Mall", "Rochester, MN 55902"]}, "phone": "+15072064422", "display_phone": "(507) 206-4422", "distance": 1348.5014211170737}, {"id": "cSDAtOwggOyYFBzZXl2xVw", "alias": "leeann-chin-rochester", "name": "Leeann Chin", "image_url": "https://s3-media4.fl.yelpcdn.com/bphoto/ftXjuKGtgDxpquqEEpIPKQ/o.jpg", "is_closed": false, "url": "https://www.yelp.com/biz/leeann-chin-rochester?adjust_creative=Qauz7cdm5F8D_pDp7A48cQ&utm_campaign=yelp_api_v3&utm_medium=api_v3_business_search&utm_source=Qauz7cdm5F8D_pDp7A48cQ", "review_count": 12, "categories": [{"alias": "chinese", "title": "Chinese"}, {"alias": "asianfusion", "title": "Asian Fusion"}], "rating": 2.0, "coordinates": {"latitude": 44.06284, "longitude": -92.50213}, "transactions": ["delivery", "pickup"], "location": {"address1": "3809 Marketplace Dr NW", "address2": "", "address3": null, "city": "Rochester", "zip_code": "55901", "country": "US", "state": "MN", "display_address": ["3809 Marketplace Dr NW", "Rochester, MN 55901"]}, "phone": "+15072060701", "display_phone": "(507) 206-0701", "distance": 5431.109412970834}, {"id": "gdjHhmd0nCRMXVP4ma5CxA", "alias": "wabi-sabi-express-rochester", "name": "Wabi Sabi Express", "image_url": "https://s3-media4.fl.yelpcdn.com/bphoto/kJsl5mevN6z_jXxqci2GQg/o.jpg", "is_closed": false, "url": "https://www.yelp.com/biz/wabi-sabi-express-rochester?adjust_creative=Qauz7cdm5F8D_pDp7A48cQ&utm_campaign=yelp_api_v3&utm_medium=api_v3_business_search&utm_source=Qauz7cdm5F8D_pDp7A48cQ", "review_count": 33, "categories": [{"alias": "sushi", "title": "Sushi Bars"}, {"alias": "japanese", "title": "Japanese"}], "rating": 3.0, "coordinates": {"latitude": 44.0224311528042, "longitude": -92.4642296614187}, "transactions": ["delivery", "pickup"], "price": "$", "location": {"address1": "100 1st Ave SW", "address2": "", "address3": "", "city": "Rochester", "zip_code": "55902", "country": "US", "state": "MN", "display_address": ["100 1st Ave SW", "Rochester, MN 55902"]}, "phone": "+15072585288", "display_phone": "(507) 258-5288", "distance": 1313.1773266764365}, {"id": "OI-eOK9PoVvSfvrX-DWy5A", "alias": "china-star-rochester-2", "name": "China Star", "image_url": "https://s3-media2.fl.yelpcdn.com/bphoto/iCGonGSjtGBx1opP07kwBw/o.jpg", "is_closed": false, "url": "https://www.yelp.com/biz/china-star-rochester-2?adjust_creative=Qauz7cdm5F8D_pDp7A48cQ&utm_campaign=yelp_api_v3&utm_medium=api_v3_business_search&utm_source=Qauz7cdm5F8D_pDp7A48cQ", "review_count": 34, "categories": [{"alias": "chinese", "title": "Chinese"}], "rating": 3.5, "coordinates": {"latitude": 44.0649, "longitude": -92.50389}, "transactions": ["delivery"], "price": "$", "location": {"address1": "2808 41st St NW", "address2": "", "address3": "", "city": "Rochester", "zip_code": "55901", "country": "US", "state": "MN", "display_address": ["2808 41st St NW", "Rochester, MN 55901"]}, "phone": "+15072813905", "display_phone": "(507) 281-3905", "distance": 5692.385443889116}, {"id": "gRcovn_7MCiRLAgy28iGGQ", "alias": "the-hyderabad-indian-grill-rochester-2", "name": "The Hyderabad indian Grill", "image_url": "https://s3-media2.fl.yelpcdn.com/bphoto/xRaO5n13lFBWNuZrbOFqyA/o.jpg", "is_closed": false, "url": "https://www.yelp.com/biz/the-hyderabad-indian-grill-rochester-2?adjust_creative=Qauz7cdm5F8D_pDp7A48cQ&utm_campaign=yelp_api_v3&utm_medium=api_v3_business_search&utm_source=Qauz7cdm5F8D_pDp7A48cQ", "review_count": 51, "categories": [{"alias": "indpak", "title": "Indian"}], "rating": 4.0, "coordinates": {"latitude": 44.07760333, "longitude": -92.51611667}, "transactions": ["pickup", "delivery"], "location": {"address1": "3462 55th St NW", "address2": "Ste 100", "address3": "", "city": "Rochester", "zip_code": "55901", "country": "US", "state": "MN", "display_address": ["3462 55th St NW", "Ste 100", "Rochester, MN 55901"]}, "phone": "+15072066777", "display_phone": "(507) 206-6777", "distance": 7356.74966959096}, {"id": "l9TMjacbFJdrf0ikT_ZpsA", "alias": "chinese-chinhs-express-rochester-2", "name": "Chinese Chinh's Express", "image_url": "https://s3-media4.fl.yelpcdn.com/bphoto/cgHapQnYyKU7fRpfYurw9Q/o.jpg", "is_closed": false, "url": "https://www.yelp.com/biz/chinese-chinhs-express-rochester-2?adjust_creative=Qauz7cdm5F8D_pDp7A48cQ&utm_campaign=yelp_api_v3&utm_medium=api_v3_business_search&utm_source=Qauz7cdm5F8D_pDp7A48cQ", "review_count": 7, "categories": [{"alias": "chinese", "title": "Chinese"}], "rating": 3.5, "coordinates": {"latitude": 44.022328, "longitude": -92.4641345}, "transactions": ["delivery"], "location": {"address1": "100 1st Ave SW", "address2": "Fl 2", "address3": "", "city": "Rochester", "zip_code": "55902", "country": "US", "state": "MN", "display_address": ["100 1st Ave SW", "Fl 2", "Rochester, MN 55902"]}, "phone": "+15072585350", "display_phone": "(507) 258-5350", "distance": 1314.6906267071995}, {"id": "DUv0rmggZYGMofUEO6CwDw", "alias": "old-abe-coffee-rochester-2", "name": "Old Abe Coffee", "image_url": "https://s3-media2.fl.yelpcdn.com/bphoto/B3fNhy3_35HNzjPCq5Ogaw/o.jpg", "is_closed": false, "url": "https://www.yelp.com/biz/old-abe-coffee-rochester-2?adjust_creative=Qauz7cdm5F8D_pDp7A48cQ&utm_campaign=yelp_api_v3&utm_medium=api_v3_business_search&utm_source=Qauz7cdm5F8D_pDp7A48cQ", "review_count": 54, "categories": [{"alias": "coffee", "title": "Coffee & Tea"}, {"alias": "vegan", "title": "Vegan"}, {"alias": "vegetarian", "title": "Vegetarian"}], "rating": 4.5, "coordinates": {"latitude": 44.0308259, "longitude": -92.4752535}, "transactions": ["delivery"], "price": "$$", "location": {"address1": "832 7th St NW", "address2": "", "address3": null, "city": "Rochester", "zip_code": "55901", "country": "US", "state": "MN", "display_address": ["832 7th St NW", "Rochester, MN 55901"]}, "phone": "+15072710294", "display_phone": "(507) 271-0294", "distance": 1566.563171204726}, {"id": "0BwPXGXIuiNNbISsFEBHrA", "alias": "crave-rochester", "name": "Crave", "image_url": "https://s3-media1.fl.yelpcdn.com/bphoto/uYdvlksXEDoiO3Kw968dLw/o.jpg", "is_closed": false, "url": "https://www.yelp.com/biz/crave-rochester?adjust_creative=Qauz7cdm5F8D_pDp7A48cQ&utm_campaign=yelp_api_v3&utm_medium=api_v3_business_search&utm_source=Qauz7cdm5F8D_pDp7A48cQ", "review_count": 37, "categories": [{"alias": "sushi", "title": "Sushi Bars"}, {"alias": "tradamerican", "title": "American (Traditional)"}], "rating": 4.0, "coordinates": {"latitude": 44.02095067, "longitude": -92.46255867}, "transactions": ["delivery"], "location": {"address1": "220 Broadway Ave S", "address2": "", "address3": null, "city": "Rochester", "zip_code": "55904", "country": "US", "state": "MN", "display_address": ["220 Broadway Ave S", "Rochester, MN 55904"]}, "phone": "+15075123800", "display_phone": "(507) 512-3800", "distance": 1374.117762732008}, {"id": "UlPPScIx2h82BifFmdGiKg", "alias": "hunan-garden-chinese-restaurant-rochester", "name": "Hunan Garden Chinese Restaurant", "image_url": "https://s3-media2.fl.yelpcdn.com/bphoto/BMIIiFAhsXkDhCRZBxtIqQ/o.jpg", "is_closed": false, "url": "https://www.yelp.com/biz/hunan-garden-chinese-restaurant-rochester?adjust_creative=Qauz7cdm5F8D_pDp7A48cQ&utm_campaign=yelp_api_v3&utm_medium=api_v3_business_search&utm_source=Qauz7cdm5F8D_pDp7A48cQ", "review_count": 42, "categories": [{"alias": "chinese", "title": "Chinese"}], "rating": 3.5, "coordinates": {"latitude": 44.03094, "longitude": -92.4803}, "transactions": ["pickup", "delivery"], "price": "$$", "location": {"address1": "1120 7th St NW", "address2": null, "address3": null, "city": "Rochester", "zip_code": "55901", "country": "US", "state": "MN", "display_address": ["1120 7th St NW", "Rochester, MN 55901"]}, "phone": "+15072851438", "display_phone": "(507) 285-1438", "distance": 1557.249199760928}, {"id": "s-8IlsTpmz0RcW5uVwTWtA", "alias": "peoples-food-co-op-rochester-2", "name": "People's Food Co-op", "image_url": "https://s3-media2.fl.yelpcdn.com/bphoto/DNiUmKS_DjPh6ApXpwn09w/o.jpg", "is_closed": false, "url": "https://www.yelp.com/biz/peoples-food-co-op-rochester-2?adjust_creative=Qauz7cdm5F8D_pDp7A48cQ&utm_campaign=yelp_api_v3&utm_medium=api_v3_business_search&utm_source=Qauz7cdm5F8D_pDp7A48cQ", "review_count": 62, "categories": [{"alias": "markets", "title": "Fruits & Veggies"}, {"alias": "grocery", "title": "Grocery"}, {"alias": "healthmarkets", "title": "Health Markets"}], "rating": 4.5, "coordinates": {"latitude": 44.01738, "longitude": -92.46493}, "transactions": ["pickup", "delivery"], "price": "$$", "location": {"address1": "519 1st Ave SW", "address2": "", "address3": "", "city": "Rochester", "zip_code": "55902", "country": "US", "state": "MN", "display_address": ["519 1st Ave SW", "Rochester, MN 55902"]}, "phone": "+15072899061", "display_phone": "(507) 289-9061", "distance": 1109.261798751341}, {"id": "zCQAuo4FKjycxktbHpH-bQ", "alias": "taco-lab-rochester", "name": "Taco Lab", "image_url": "https://s3-media1.fl.yelpcdn.com/bphoto/eeWZeA7IQqi90CgTijRiMA/o.jpg", "is_closed": false, "url": "https://www.yelp.com/biz/taco-lab-rochester?adjust_creative=Qauz7cdm5F8D_pDp7A48cQ&utm_campaign=yelp_api_v3&utm_medium=api_v3_business_search&utm_source=Qauz7cdm5F8D_pDp7A48cQ", "review_count": 6, "categories": [{"alias": "foodtrucks", "title": "Food Trucks"}, {"alias": "mexican", "title": "Mexican"}], "rating": 5.0, "coordinates": {"latitude": 44.028262, "longitude": -92.48204}, "transactions": [], "location": {"address1": "1310 5th Pl NW", "address2": null, "address3": "", "city": "Rochester", "zip_code": "55901", "country": "US", "state": "MN", "display_address": ["1310 5th Pl NW", "Rochester, MN 55901"]}, "phone": "+15079909206", "display_phone": "(507) 990-9206", "distance": 1276.397854064784}, {"id": "KyWh2kvFo1q_33Lw0zhCkQ", "alias": "five-west-rochester", "name": "Five West", "image_url": "https://s3-media2.fl.yelpcdn.com/bphoto/V4cJ2EpdC9oAFsFrHI55Ig/o.jpg", "is_closed": false, "url": "https://www.yelp.com/biz/five-west-rochester?adjust_creative=Qauz7cdm5F8D_pDp7A48cQ&utm_campaign=yelp_api_v3&utm_medium=api_v3_business_search&utm_source=Qauz7cdm5F8D_pDp7A48cQ", "review_count": 263, "categories": [{"alias": "newamerican", "title": "American (New)"}, {"alias": "breakfast_brunch", "title": "Breakfast & Brunch"}, {"alias": "bars", "title": "Bars"}], "rating": 4.0, "coordinates": {"latitude": 44.0448911, "longitude": -92.5177544}, "transactions": ["pickup", "delivery"], "price": "$$", "location": {"address1": "1991 Commerce Dr NW", "address2": "", "address3": "", "city": "Rochester", "zip_code": "55901", "country": "US", "state": "MN", "display_address": ["1991 Commerce Dr NW", "Rochester, MN 55901"]}, "phone": "+15073615555", "display_phone": "(507) 361-5555", "distance": 4453.855786639369}, {"id": "TeRonG446fBCcnPxZeBPBQ", "alias": "rice-n-spice-rochester", "name": "Rice N Spice", "image_url": "", "is_closed": false, "url": "https://www.yelp.com/biz/rice-n-spice-rochester?adjust_creative=Qauz7cdm5F8D_pDp7A48cQ&utm_campaign=yelp_api_v3&utm_medium=api_v3_business_search&utm_source=Qauz7cdm5F8D_pDp7A48cQ", "review_count": 10, "categories": [{"alias": "grocery", "title": "Grocery"}, {"alias": "importedfood", "title": "Imported Food"}], "rating": 4.5, "coordinates": {"latitude": 44.0136795043945, "longitude": -92.4624099731445}, "transactions": [], "price": "$", "location": {"address1": "810 S Broadway", "address2": "Ste B", "address3": "", "city": "Rochester", "zip_code": "55904", "country": "US", "state": "MN", "display_address": ["810 S Broadway", "Ste B", "Rochester, MN 55904"]}, "phone": "+15075290258", "display_phone": "(507) 529-0258", "distance": 1351.5258717202412}, {"id": "lZ_aQfccqqRF6ER5tD2Cew", "alias": "bleu-duck-kitchen-rochester-2", "name": "Bleu Duck Kitchen", "image_url": "https://s3-media2.fl.yelpcdn.com/bphoto/03VCw8BD4bwm3tJPqNVfnA/o.jpg", "is_closed": false, "url": "https://www.yelp.com/biz/bleu-duck-kitchen-rochester-2?adjust_creative=Qauz7cdm5F8D_pDp7A48cQ&utm_campaign=yelp_api_v3&utm_medium=api_v3_business_search&utm_source=Qauz7cdm5F8D_pDp7A48cQ", "review_count": 111, "categories": [{"alias": "newamerican", "title": "American (New)"}, {"alias": "breakfast_brunch", "title": "Breakfast & Brunch"}, {"alias": "cocktailbars", "title": "Cocktail Bars"}], "rating": 4.0, "coordinates": {"latitude": 44.0192804485559, "longitude": -92.4634245783091}, "transactions": ["delivery"], "price": "$$$", "location": {"address1": "14 4th St SW", "address2": "", "address3": null, "city": "Rochester", "zip_code": "55902", "country": "US", "state": "MN", "display_address": ["14 4th St SW", "Rochester, MN 55902"]}, "phone": "+15072584663", "display_phone": "(507) 258-4663", "distance": 1255.2762635956567}, {"id": "SXwtX-ygMGfWDoxfUlsgKA", "alias": "chesters-kitchen-and-bar-rochester", "name": "Chester's Kitchen and Bar", "image_url": "https://s3-media3.fl.yelpcdn.com/bphoto/afTeoQ25AKMG0SIz8XIS7Q/o.jpg", "is_closed": false, "url": "https://www.yelp.com/biz/chesters-kitchen-and-bar-rochester?adjust_creative=Qauz7cdm5F8D_pDp7A48cQ&utm_campaign=yelp_api_v3&utm_medium=api_v3_business_search&utm_source=Qauz7cdm5F8D_pDp7A48cQ", "review_count": 662, "categories": [{"alias": "newamerican", "title": "American (New)"}, {"alias": "desserts", "title": "Desserts"}, {"alias": "breakfast_brunch", "title": "Breakfast & Brunch"}], "rating": 4.0, "coordinates": {"latitude": 44.02239, "longitude": -92.46348}, "transactions": ["delivery"], "price": "$$", "location": {"address1": "111 S Broadway", "address2": "", "address3": "", "city": "Rochester", "zip_code": "55904", "country": "US", "state": "MN", "display_address": ["111 S Broadway", "Rochester, MN 55904"]}, "phone": "+15074241211", "display_phone": "(507) 424-1211", "distance": 1363.195796316998}, {"id": "gwe3els21Np3BYms51IDjw", "alias": "cameo-at-the-castle-rochester", "name": "Cameo At The Castle", "image_url": "https://s3-media1.fl.yelpcdn.com/bphoto/t745ZtztjuHjMbMM8tjbAw/o.jpg", "is_closed": false, "url": "https://www.yelp.com/biz/cameo-at-the-castle-rochester?adjust_creative=Qauz7cdm5F8D_pDp7A48cQ&utm_campaign=yelp_api_v3&utm_medium=api_v3_business_search&utm_source=Qauz7cdm5F8D_pDp7A48cQ", "review_count": 74, "categories": [{"alias": "newamerican", "title": "American (New)"}, {"alias": "lounges", "title": "Lounges"}, {"alias": "comfortfood", "title": "Comfort Food"}], "rating": 4.0, "coordinates": {"latitude": 44.02514, "longitude": -92.46348}, "transactions": ["pickup", "delivery"], "price": "$$", "location": {"address1": "121 N Broadway Ave", "address2": null, "address3": null, "city": "Rochester", "zip_code": "55906", "country": "US", "state": "MN", "display_address": ["121 N Broadway Ave", "Rochester, MN 55906"]}, "phone": "+15073612070", "display_phone": "(507) 361-2070", "distance": 1525.9805411727798}, {"id": "eg1fjR3MRQzHfJLMCLiVQA", "alias": "noodles-and-company-rochester", "name": "Noodles & Company", "image_url": "https://s3-media1.fl.yelpcdn.com/bphoto/1LMLZHkAPO5sMqwFRfzEHw/o.jpg", "is_closed": false, "url": "https://www.yelp.com/biz/noodles-and-company-rochester?adjust_creative=Qauz7cdm5F8D_pDp7A48cQ&utm_campaign=yelp_api_v3&utm_medium=api_v3_business_search&utm_source=Qauz7cdm5F8D_pDp7A48cQ", "review_count": 39, "categories": [{"alias": "noodles", "title": "Noodles"}, {"alias": "salad", "title": "Salad"}, {"alias": "pastashops", "title": "Pasta Shops"}], "rating": 3.5, "coordinates": {"latitude": 44.0639490094892, "longitude": -92.5010472536087}, "transactions": ["pickup", "delivery"], "price": "$", "location": {"address1": "3944 Marketplace Dr NW", "address2": "", "address3": "", "city": "Rochester", "zip_code": "55901", "country": "US", "state": "MN", "display_address": ["3944 Marketplace Dr NW", "Rochester, MN 55901"]}, "phone": "+15072851111", "display_phone": "(507) 285-1111", "distance": 5518.572262264767}, {"id": "Ny-EcrBS2gysaIj0F8FphQ", "alias": "the-tap-house-west-end-rochester", "name": "The Tap House West End", "image_url": "https://s3-media4.fl.yelpcdn.com/bphoto/8SpH-Qcp6oBNOpneGdttOA/o.jpg", "is_closed": false, "url": "https://www.yelp.com/biz/the-tap-house-west-end-rochester?adjust_creative=Qauz7cdm5F8D_pDp7A48cQ&utm_campaign=yelp_api_v3&utm_medium=api_v3_business_search&utm_source=Qauz7cdm5F8D_pDp7A48cQ", "review_count": 19, "categories": [{"alias": "tacos", "title": "Tacos"}, {"alias": "tradamerican", "title": "American (Traditional)"}, {"alias": "beerbar", "title": "Beer Bar"}], "rating": 4.0, "coordinates": {"latitude": 44.048368, "longitude": -92.520608}, "transactions": ["delivery"], "location": {"address1": "2365 Commerce Dr NW", "address2": "", "address3": null, "city": "Rochester", "zip_code": "55901", "country": "US", "state": "MN", "display_address": ["2365 Commerce Dr NW", "Rochester, MN 55901"]}, "phone": "+15073613250", "display_phone": "(507) 361-3250", "distance": 4833.821002327024}, {"id": "kfNXWLwW-N_zE0RK_P-qOg", "alias": "saladworks-rochester-2", "name": "Saladworks", "image_url": "https://s3-media3.fl.yelpcdn.com/bphoto/oCMAci0jqKw8Q1zQiCSSsQ/o.jpg", "is_closed": false, "url": "https://www.yelp.com/biz/saladworks-rochester-2?adjust_creative=Qauz7cdm5F8D_pDp7A48cQ&utm_campaign=yelp_api_v3&utm_medium=api_v3_business_search&utm_source=Qauz7cdm5F8D_pDp7A48cQ", "review_count": 7, "categories": [{"alias": "salad", "title": "Salad"}, {"alias": "soup", "title": "Soup"}, {"alias": "sandwiches", "title": "Sandwiches"}], "rating": 3.0, "coordinates": {"latitude": 44.02224, "longitude": -92.46491}, "transactions": ["pickup", "delivery"], "location": {"address1": "101 1st Ave", "address2": "Ste 27", "address3": null, "city": "Rochester", "zip_code": "55902", "country": "US", "state": "MN", "display_address": ["101 1st Ave", "Ste 27", "Rochester, MN 55902"]}, "phone": "+15073613333", "display_phone": "(507) 361-3333", "distance": 1257.1625818265845}, {"id": "0mwBcoJ0MQu45X8lGvOZIQ", "alias": "asian-style-massage-rochester", "name": "Asian Style Massage", "image_url": "https://s3-media4.fl.yelpcdn.com/bphoto/KZf-3eQ8SdHtzlvsiYJfJA/o.jpg", "is_closed": false, "url": "https://www.yelp.com/biz/asian-style-massage-rochester?adjust_creative=Qauz7cdm5F8D_pDp7A48cQ&utm_campaign=yelp_api_v3&utm_medium=api_v3_business_search&utm_source=Qauz7cdm5F8D_pDp7A48cQ", "review_count": 2, "categories": [{"alias": "massage", "title": "Massage"}, {"alias": "massage_therapy", "title": "Massage Therapy"}], "rating": 3.0, "coordinates": {"latitude": 44.02136747559, "longitude": -92.4925250601189}, "transactions": [], "location": {"address1": "1906 2nd St SW", "address2": "", "address3": null, "city": "Rochester", "zip_code": "55902", "country": "US", "state": "MN", "display_address": ["1906 2nd St SW", "Rochester, MN 55902"]}, "phone": "+15072893018", "display_phone": "(507) 289-3018", "distance": 1202.2336242505144}, {"id": "DQrswpFxL-bUNFHDABoW8Q", "alias": "pescara-rochester", "name": "Pescara", "image_url": "https://s3-media3.fl.yelpcdn.com/bphoto/03P5VLhxKvE1MCA6X319RA/o.jpg", "is_closed": false, "url": "https://www.yelp.com/biz/pescara-rochester?adjust_creative=Qauz7cdm5F8D_pDp7A48cQ&utm_campaign=yelp_api_v3&utm_medium=api_v3_business_search&utm_source=Qauz7cdm5F8D_pDp7A48cQ", "review_count": 311, "categories": [{"alias": "newamerican", "title": "American (New)"}, {"alias": "seafood", "title": "Seafood"}], "rating": 4.0, "coordinates": {"latitude": 44.0221, "longitude": -92.462503}, "transactions": ["delivery"], "price": "$$$", "location": {"address1": "150 S Broadway Ave", "address2": "", "address3": "", "city": "Rochester", "zip_code": "55904", "country": "US", "state": "MN", "display_address": ["150 S Broadway Ave", "Rochester, MN 55904"]}, "phone": "+15072806900", "display_phone": "(507) 280-6900", "distance": 1421.836953433688}, {"id": "ZrxCgL2VDAO7bbnmo-sJTQ", "alias": "workshop-food-hall-and-bar-rochester", "name": "Workshop Food Hall & Bar", "image_url": "https://s3-media1.fl.yelpcdn.com/bphoto/7u4XYzjrMIs7AUKb8MasWQ/o.jpg", "is_closed": false, "url": "https://www.yelp.com/biz/workshop-food-hall-and-bar-rochester?adjust_creative=Qauz7cdm5F8D_pDp7A48cQ&utm_campaign=yelp_api_v3&utm_medium=api_v3_business_search&utm_source=Qauz7cdm5F8D_pDp7A48cQ", "review_count": 11, "categories": [{"alias": "bars", "title": "Bars"}, {"alias": "burgers", "title": "Burgers"}, {"alias": "hotdog", "title": "Hot Dogs"}], "rating": 4.5, "coordinates": {"latitude": 44.00559, "longitude": -92.45829}, "transactions": [], "location": {"address1": "1232 3rd Ave SE", "address2": "", "address3": null, "city": "Rochester", "zip_code": "55904", "country": "US", "state": "MN", "display_address": ["1232 3rd Ave SE", "Rochester, MN 55904"]}, "phone": "", "display_phone": "", "distance": 2072.5029790899152}, {"id": "-We-79gR9q0UZ1NxFtxUIQ", "alias": "purple-goat-rochester", "name": "Purple Goat", "image_url": "https://s3-media2.fl.yelpcdn.com/bphoto/2dwHk3RS8rIHvdiK309rlQ/o.jpg", "is_closed": false, "url": "https://www.yelp.com/biz/purple-goat-rochester?adjust_creative=Qauz7cdm5F8D_pDp7A48cQ&utm_campaign=yelp_api_v3&utm_medium=api_v3_business_search&utm_source=Qauz7cdm5F8D_pDp7A48cQ", "review_count": 39, "categories": [{"alias": "bars", "title": "Bars"}, {"alias": "tradamerican", "title": "American (Traditional)"}], "rating": 3.5, "coordinates": {"latitude": 44.0599, "longitude": -92.45317}, "transactions": ["delivery"], "price": "$$", "location": {"address1": "3708 N Broadway Ave", "address2": "Ste 160", "address3": null, "city": "Rochester", "zip_code": "55906", "country": "US", "state": "MN", "display_address": ["3708 N Broadway Ave", "Ste 160", "Rochester, MN 55906"]}, "phone": "+15073615144", "display_phone": "(507) 361-5144", "distance": 5243.393326832264}, {"id": "xBhxY0PtIN-iYIXeRUbsFw", "alias": "prescotts-grill-rochester-2", "name": "Prescotts Grill", "image_url": "https://s3-media2.fl.yelpcdn.com/bphoto/FPdLNuxbzuPTXtU6hWUs6w/o.jpg", "is_closed": false, "url": "https://www.yelp.com/biz/prescotts-grill-rochester-2?adjust_creative=Qauz7cdm5F8D_pDp7A48cQ&utm_campaign=yelp_api_v3&utm_medium=api_v3_business_search&utm_source=Qauz7cdm5F8D_pDp7A48cQ", "review_count": 105, "categories": [{"alias": "newamerican", "title": "American (New)"}, {"alias": "wine_bars", "title": "Wine Bars"}], "rating": 4.5, "coordinates": {"latitude": 44.003825, "longitude": -92.465736}, "transactions": [], "price": "$$$", "location": {"address1": "1201 S Broadway", "address2": "Ste 80", "address3": "", "city": "Rochester", "zip_code": "55904", "country": "US", "state": "MN", "display_address": ["1201 S Broadway", "Ste 80", "Rochester, MN 55904"]}, "phone": "+15075367775", "display_phone": "(507) 536-7775", "distance": 1796.1020709941}, {"id": "Wam7L5OEEAJHv6DmQFeIfg", "alias": "newts-rochester-7", "name": "Newt's", "image_url": "https://s3-media2.fl.yelpcdn.com/bphoto/qSdLzZa0yJopwoUBFpe_og/o.jpg", "is_closed": false, "url": "https://www.yelp.com/biz/newts-rochester-7?adjust_creative=Qauz7cdm5F8D_pDp7A48cQ&utm_campaign=yelp_api_v3&utm_medium=api_v3_business_search&utm_source=Qauz7cdm5F8D_pDp7A48cQ", "review_count": 274, "categories": [{"alias": "burgers", "title": "Burgers"}, {"alias": "beerbar", "title": "Beer Bar"}], "rating": 4.0, "coordinates": {"latitude": 44.0209629976761, "longitude": -92.4641192797623}, "transactions": ["delivery"], "price": "$$", "location": {"address1": "216 1/2 1st Ave SW", "address2": "", "address3": "", "city": "Rochester", "zip_code": "55902", "country": "US", "state": "MN", "display_address": ["216 1/2 1st Ave SW", "Rochester, MN 55902"]}, "phone": "+15072890577", "display_phone": "(507) 289-0577", "distance": 1254.368234114443}, {"id": "vr1jOq4UE4x5nEbZiyTTug", "alias": "lee-market-rochester", "name": "Lee Market", "image_url": "https://s3-media4.fl.yelpcdn.com/bphoto/7TF73ytfSU8KwBZy69HVCg/o.jpg", "is_closed": false, "url": "https://www.yelp.com/biz/lee-market-rochester?adjust_creative=Qauz7cdm5F8D_pDp7A48cQ&utm_campaign=yelp_api_v3&utm_medium=api_v3_business_search&utm_source=Qauz7cdm5F8D_pDp7A48cQ", "review_count": 4, "categories": [{"alias": "grocery", "title": "Grocery"}], "rating": 5.0, "coordinates": {"latitude": 44.03219, "longitude": -92.44788}, "transactions": [], "location": {"address1": "1116 9th St Ne", "address2": "", "address3": null, "city": "Rochester", "zip_code": "55906", "country": "US", "state": "MN", "display_address": ["1116 9th St Ne", "Rochester, MN 55906"]}, "phone": "+15072584585", "display_phone": "(507) 258-4585", "distance": 2990.026193978059}, {"id": "qZCgBNCUCVIntDM6FKQmTQ", "alias": "fareway-stores-stewartville", "name": "Fareway Stores", "image_url": "https://s3-media2.fl.yelpcdn.com/bphoto/_jrE_TimHsMRFMpufOYYDg/o.jpg", "is_closed": false, "url": "https://www.yelp.com/biz/fareway-stores-stewartville?adjust_creative=Qauz7cdm5F8D_pDp7A48cQ&utm_campaign=yelp_api_v3&utm_medium=api_v3_business_search&utm_source=Qauz7cdm5F8D_pDp7A48cQ", "review_count": 3, "categories": [{"alias": "grocery", "title": "Grocery"}], "rating": 4.5, "coordinates": {"latitude": 43.8704492, "longitude": -92.4856651}, "transactions": [], "price": "$$", "location": {"address1": "2012 2nd Ave NE", "address2": "", "address3": "", "city": "Stewartville", "zip_code": "55976", "country": "US", "state": "MN", "display_address": ["2012 2nd Ave NE", "Stewartville, MN 55976"]}, "phone": "+15075334195", "display_phone": "(507) 533-4195", "distance": 16171.909740293731}, {"id": "mDT3_haAF1y09uXYY9g8Fw", "alias": "smoak-bbq-rochester", "name": "Smoak BBQ", "image_url": "https://s3-media2.fl.yelpcdn.com/bphoto/rGrM0v9k4XZTgYFGjkPB-g/o.jpg", "is_closed": false, "url": "https://www.yelp.com/biz/smoak-bbq-rochester?adjust_creative=Qauz7cdm5F8D_pDp7A48cQ&utm_campaign=yelp_api_v3&utm_medium=api_v3_business_search&utm_source=Qauz7cdm5F8D_pDp7A48cQ", "review_count": 90, "categories": [{"alias": "bbq", "title": "Barbeque"}], "rating": 3.5, "coordinates": {"latitude": 44.0479499580698, "longitude": -92.5205620978641}, "transactions": ["delivery", "pickup"], "price": "$$", "location": {"address1": "2291 Commerce Dr NW", "address2": "", "address3": null, "city": "Rochester", "zip_code": "55901", "country": "US", "state": "MN", "display_address": ["2291 Commerce Dr NW", "Rochester, MN 55901"]}, "phone": "+15073617427", "display_phone": "(507) 361-7427", "distance": 4797.807075274992}, {"id": "SOJpEgRcBqFhHFqOcQr6nQ", "alias": "applebees-grill-bar-rochester-2", "name": "Applebee's Grill + Bar", "image_url": "https://s3-media2.fl.yelpcdn.com/bphoto/jOV1DudkXLYKUi31u2_HHw/o.jpg", "is_closed": false, "url": "https://www.yelp.com/biz/applebees-grill-bar-rochester-2?adjust_creative=Qauz7cdm5F8D_pDp7A48cQ&utm_campaign=yelp_api_v3&utm_medium=api_v3_business_search&utm_source=Qauz7cdm5F8D_pDp7A48cQ", "review_count": 40, "categories": [{"alias": "tradamerican", "title": "American (Traditional)"}, {"alias": "sportsbars", "title": "Sports Bars"}, {"alias": "burgers", "title": "Burgers"}], "rating": 2.5, "coordinates": {"latitude": 44.063176, "longitude": -92.5005718}, "transactions": ["delivery", "pickup"], "price": "$$", "location": {"address1": "3794 Marketplace Dr NW", "address2": "", "address3": "", "city": "Rochester", "zip_code": "55901", "country": "US", "state": "MN", "display_address": ["3794 Marketplace Dr NW", "Rochester, MN 55901"]}, "phone": "+15072806626", "display_phone": "(507) 280-6626", "distance": 5424.964941570978}, {"id": "MkdimuSC9n9WDq-3fZF8dA", "alias": "pearl-house-rochester", "name": "Pearl House", "image_url": "", "is_closed": false, "url": "https://www.yelp.com/biz/pearl-house-rochester?adjust_creative=Qauz7cdm5F8D_pDp7A48cQ&utm_campaign=yelp_api_v3&utm_medium=api_v3_business_search&utm_source=Qauz7cdm5F8D_pDp7A48cQ", "review_count": 1, "categories": [{"alias": "chinese", "title": "Chinese"}], "rating": 2.0, "coordinates": {"latitude": 44.028869, "longitude": -92.47979}, "transactions": [], "location": {"address1": "1117 Civic Ctr Dr", "address2": "", "address3": "", "city": "Rochester", "zip_code": "55901", "country": "US", "state": "MN", "display_address": ["1117 Civic Ctr Dr", "Rochester, MN 55901"]}, "phone": "+15072823662", "display_phone": "(507) 282-3662", "distance": 1325.6441134616368}, {"id": "GpBkSg0QPnBqpGXTrVrWKA", "alias": "hefe-rojo-rochester", "name": "Hefe Rojo", "image_url": "https://s3-media1.fl.yelpcdn.com/bphoto/VXKbUogmLSs1bvs0GI1hAQ/o.jpg", "is_closed": false, "url": "https://www.yelp.com/biz/hefe-rojo-rochester?adjust_creative=Qauz7cdm5F8D_pDp7A48cQ&utm_campaign=yelp_api_v3&utm_medium=api_v3_business_search&utm_source=Qauz7cdm5F8D_pDp7A48cQ", "review_count": 187, "categories": [{"alias": "cocktailbars", "title": "Cocktail Bars"}, {"alias": "mexican", "title": "Mexican"}], "rating": 3.5, "coordinates": {"latitude": 44.0209884643555, "longitude": -92.4640731811523}, "transactions": ["delivery", "pickup"], "price": "$$", "location": {"address1": "216 1st Ave SW", "address2": "", "address3": "", "city": "Rochester", "zip_code": "55902", "country": "US", "state": "MN", "display_address": ["216 1st Ave SW", "Rochester, MN 55902"]}, "phone": "+15072891949", "display_phone": "(507) 289-1949", "distance": 1256.7901381591516}, {"id": "dNR3L58QKYSROnsE8GiI5Q", "alias": "happy-body-and-feet-massage-rochester", "name": "Happy Body & Feet Massage", "image_url": "https://s3-media3.fl.yelpcdn.com/bphoto/CRb3Y0XF44rfscVWmXDcpA/o.jpg", "is_closed": false, "url": "https://www.yelp.com/biz/happy-body-and-feet-massage-rochester?adjust_creative=Qauz7cdm5F8D_pDp7A48cQ&utm_campaign=yelp_api_v3&utm_medium=api_v3_business_search&utm_source=Qauz7cdm5F8D_pDp7A48cQ", "review_count": 4, "categories": [{"alias": "massage", "title": "Massage"}, {"alias": "reflexology", "title": "Reflexology"}, {"alias": "tcm", "title": "Traditional Chinese Medicine"}], "rating": 4.0, "coordinates": {"latitude": 44.03183, "longitude": -92.47975}, "transactions": [], "location": {"address1": "1107 7th St NW", "address2": "", "address3": "", "city": "Rochester", "zip_code": "55901", "country": "US", "state": "MN", "display_address": ["1107 7th St NW", "Rochester, MN 55901"]}, "phone": "+15072164687", "display_phone": "(507) 216-4687", "distance": 1650.612926222518}, {"id": "3oEcaPzGoXVCfS0if2T9jg", "alias": "carbones-pizza-and-sports-bar-rochester", "name": "Carbones Pizza and Sports Bar", "image_url": "https://s3-media2.fl.yelpcdn.com/bphoto/MUAFuX_d4RwGzLF4wzSArg/o.jpg", "is_closed": false, "url": "https://www.yelp.com/biz/carbones-pizza-and-sports-bar-rochester?adjust_creative=Qauz7cdm5F8D_pDp7A48cQ&utm_campaign=yelp_api_v3&utm_medium=api_v3_business_search&utm_source=Qauz7cdm5F8D_pDp7A48cQ", "review_count": 5, "categories": [{"alias": "sportsbars", "title": "Sports Bars"}, {"alias": "pastashops", "title": "Pasta Shops"}, {"alias": "pizza", "title": "Pizza"}], "rating": 2.5, "coordinates": {"latitude": 44.05268, "longitude": -92.52175}, "transactions": [], "location": {"address1": "2723 Commerce Dr NW", "address2": null, "address3": null, "city": "Rochester", "zip_code": "55901", "country": "US", "state": "MN", "display_address": ["2723 Commerce Dr NW", "Rochester, MN 55901"]}, "phone": "+15075168200", "display_phone": "(507) 516-8200", "distance": 5266.386385339274}, {"id": "odQPWb0XCdREZwjexhuIqg", "alias": "saints-on-2nd-bar-and-grill-rochester", "name": "Saints On 2nd Bar and Grill", "image_url": "https://s3-media1.fl.yelpcdn.com/bphoto/WIwbL9SXb3bDTqrP2j8DIQ/o.jpg", "is_closed": false, "url": "https://www.yelp.com/biz/saints-on-2nd-bar-and-grill-rochester?adjust_creative=Qauz7cdm5F8D_pDp7A48cQ&utm_campaign=yelp_api_v3&utm_medium=api_v3_business_search&utm_source=Qauz7cdm5F8D_pDp7A48cQ", "review_count": 67, "categories": [{"alias": "bars", "title": "Bars"}, {"alias": "tradamerican", "title": "American (Traditional)"}], "rating": 3.5, "coordinates": {"latitude": 44.02211, "longitude": -92.48385}, "transactions": ["delivery", "pickup"], "price": "$$", "location": {"address1": "161 13th Ave SW", "address2": "", "address3": "", "city": "Rochester", "zip_code": "55902", "country": "US", "state": "MN", "display_address": ["161 13th Ave SW", "Rochester, MN 55902"]}, "phone": "+15075360040", "display_phone": "(507) 536-0040", "distance": 705.4031386323926}, {"id": "aKRpefFVf0jSCFKwwXPN3Q", "alias": "asian-body-massage-rochester-3", "name": "Asian Body Massage", "image_url": "https://s3-media2.fl.yelpcdn.com/bphoto/no40lGkt1JVga-2dhazDdg/o.jpg", "is_closed": false, "url": "https://www.yelp.com/biz/asian-body-massage-rochester-3?adjust_creative=Qauz7cdm5F8D_pDp7A48cQ&utm_campaign=yelp_api_v3&utm_medium=api_v3_business_search&utm_source=Qauz7cdm5F8D_pDp7A48cQ", "review_count": 8, "categories": [{"alias": "massage", "title": "Massage"}, {"alias": "massage_therapy", "title": "Massage Therapy"}], "rating": 4.0, "coordinates": {"latitude": 44.01410083649246, "longitude": -92.46248759032962}, "transactions": [], "location": {"address1": "816 Broadway Ave S", "address2": null, "address3": "", "city": "Rochester", "zip_code": "55904", "country": "US", "state": "MN", "display_address": ["816 Broadway Ave S", "Rochester, MN 55904"]}, "phone": "+15072584009", "display_phone": "(507) 258-4009", "distance": 1342.09999991795}, {"id": "AfUeGLTgxGCUJffvNIwygA", "alias": "canadian-honker-rochester-5", "name": "Canadian Honker", "image_url": "https://s3-media2.fl.yelpcdn.com/bphoto/IfLTh_NBmAuuw1t0a_Zq2w/o.jpg", "is_closed": false, "url": "https://www.yelp.com/biz/canadian-honker-rochester-5?adjust_creative=Qauz7cdm5F8D_pDp7A48cQ&utm_campaign=yelp_api_v3&utm_medium=api_v3_business_search&utm_source=Qauz7cdm5F8D_pDp7A48cQ", "review_count": 306, "categories": [{"alias": "breakfast_brunch", "title": "Breakfast & Brunch"}, {"alias": "tradamerican", "title": "American (Traditional)"}, {"alias": "bars", "title": "Bars"}], "rating": 4.0, "coordinates": {"latitude": 44.021872, "longitude": -92.481556}, "transactions": ["delivery", "pickup"], "price": "$$", "location": {"address1": "1203 2nd St SW", "address2": "", "address3": "", "city": "Rochester", "zip_code": "55902", "country": "US", "state": "MN", "display_address": ["1203 2nd St SW", "Rochester, MN 55902"]}, "phone": "+15072826572", "display_phone": "(507) 282-6572", "distance": 588.3467353552277}, {"id": "iJGeMYs67kpz4RErx3iqEw", "alias": "cherryberry-rochester", "name": "Cherryberry", "image_url": "https://s3-media2.fl.yelpcdn.com/bphoto/T0DJFxZt72bNPoUPvrFDBg/o.jpg", "is_closed": false, "url": "https://www.yelp.com/biz/cherryberry-rochester?adjust_creative=Qauz7cdm5F8D_pDp7A48cQ&utm_campaign=yelp_api_v3&utm_medium=api_v3_business_search&utm_source=Qauz7cdm5F8D_pDp7A48cQ", "review_count": 27, "categories": [{"alias": "desserts", "title": "Desserts"}, {"alias": "icecream", "title": "Ice Cream & Frozen Yogurt"}], "rating": 3.5, "coordinates": {"latitude": 44.02229534448425, "longitude": -92.48617870224238}, "transactions": ["delivery"], "price": "$", "location": {"address1": "123 16th Ave SW", "address2": "Ste 100", "address3": "", "city": "Rochester", "zip_code": "55902", "country": "US", "state": "MN", "display_address": ["123 16th Ave SW", "Ste 100", "Rochester, MN 55902"]}, "phone": "+15072584002", "display_phone": "(507) 258-4002", "distance": 836.5479093436504}, {"id": "zqIMjwDfG6ZkSCSYw_G4cg", "alias": "west-end-salon-and-skinbar-rochester", "name": "West End Salon & SkinBar", "image_url": "https://s3-media4.fl.yelpcdn.com/bphoto/9wLaqCcMLuFiVNlgyK3eig/o.jpg", "is_closed": false, "url": "https://www.yelp.com/biz/west-end-salon-and-skinbar-rochester?adjust_creative=Qauz7cdm5F8D_pDp7A48cQ&utm_campaign=yelp_api_v3&utm_medium=api_v3_business_search&utm_source=Qauz7cdm5F8D_pDp7A48cQ", "review_count": 69, "categories": [{"alias": "hair", "title": "Hair Salons"}, {"alias": "skincare", "title": "Skin Care"}, {"alias": "makeupartists", "title": "Makeup Artists"}], "rating": 4.5, "coordinates": {"latitude": 44.0217749, "longitude": -92.4845769}, "transactions": [], "price": "$$", "location": {"address1": "1407 2nd St SW", "address2": "", "address3": "", "city": "Rochester", "zip_code": "55902", "country": "US", "state": "MN", "display_address": ["1407 2nd St SW", "Rochester, MN 55902"]}, "phone": "+15072268889", "display_phone": "(507) 226-8889", "distance": 702.8319325419723}, {"id": "s3otmajwgZIlsCoO3w4AYA", "alias": "hy-vee-rochester-5", "name": "Hy-Vee", "image_url": "https://s3-media1.fl.yelpcdn.com/bphoto/ORzs3hnz6l6NrmOQSurveg/o.jpg", "is_closed": false, "url": "https://www.yelp.com/biz/hy-vee-rochester-5?adjust_creative=Qauz7cdm5F8D_pDp7A48cQ&utm_campaign=yelp_api_v3&utm_medium=api_v3_business_search&utm_source=Qauz7cdm5F8D_pDp7A48cQ", "review_count": 24, "categories": [{"alias": "grocery", "title": "Grocery"}], "rating": 3.5, "coordinates": {"latitude": 44.0298054419966, "longitude": -92.4812118126126}, "transactions": ["delivery", "pickup"], "price": "$", "location": {"address1": "1315 6th St NW", "address2": null, "address3": null, "city": "Rochester", "zip_code": "55901", "country": "US", "state": "MN", "display_address": ["1315 6th St NW", "Rochester, MN 55901"]}, "phone": "+15072888233", "display_phone": "(507) 288-8233", "distance": 1440.4310437452611}, {"id": "2QMcC0SRmi48I_BhzPllgg", "alias": "red-lobster-rochester-4", "name": "Red Lobster", "image_url": "https://s3-media4.fl.yelpcdn.com/bphoto/blz38LBMwv74pNaJ5kpIaQ/o.jpg", "is_closed": false, "url": "https://www.yelp.com/biz/red-lobster-rochester-4?adjust_creative=Qauz7cdm5F8D_pDp7A48cQ&utm_campaign=yelp_api_v3&utm_medium=api_v3_business_search&utm_source=Qauz7cdm5F8D_pDp7A48cQ", "review_count": 40, "categories": [{"alias": "seafood", "title": "Seafood"}, {"alias": "tradamerican", "title": "American (Traditional)"}], "rating": 3.5, "coordinates": {"latitude": 44.004895, "longitude": -92.481437}, "transactions": ["delivery", "pickup"], "price": "$$", "location": {"address1": "1280 Highway 14 SW", "address2": "APACHE MALL", "address3": "", "city": "Rochester", "zip_code": "55902", "country": "US", "state": "MN", "display_address": ["1280 Highway 14 SW", "APACHE MALL", "Rochester, MN 55902"]}, "phone": "+15072880688", "display_phone": "(507) 288-0688", "distance": 1359.134959183827}, {"id": "G3y7wJjnqSoDikFT_XweGA", "alias": "wildwood-sports-bar-and-grill-rochester", "name": "Wildwood Sports Bar & Grill", "image_url": "https://s3-media2.fl.yelpcdn.com/bphoto/WI0KrRkh53gpOOHht7fnGg/o.jpg", "is_closed": false, "url": "https://www.yelp.com/biz/wildwood-sports-bar-and-grill-rochester?adjust_creative=Qauz7cdm5F8D_pDp7A48cQ&utm_campaign=yelp_api_v3&utm_medium=api_v3_business_search&utm_source=Qauz7cdm5F8D_pDp7A48cQ", "review_count": 81, "categories": [{"alias": "burgers", "title": "Burgers"}, {"alias": "gastropubs", "title": "Gastropubs"}, {"alias": "sportsbars", "title": "Sports Bars"}], "rating": 3.5, "coordinates": {"latitude": 44.0022287, "longitude": -92.4871791}, "transactions": ["delivery"], "price": "$$", "location": {"address1": "1517 16th St SW", "address2": "", "address3": "", "city": "Rochester", "zip_code": "55902", "country": "US", "state": "MN", "display_address": ["1517 16th St SW", "Rochester, MN 55902"]}, "phone": "+15072268380", "display_phone": "(507) 226-8380", "distance": 1695.0825353578687}, {"id": "-OFRWzThVY2tcSB7nTJcRA", "alias": "whistle-binkies-on-the-lake-rochester", "name": "Whistle Binkies On The Lake", "image_url": "https://s3-media3.fl.yelpcdn.com/bphoto/h5Lyxu6aVXovXNMFObbvyg/o.jpg", "is_closed": false, "url": "https://www.yelp.com/biz/whistle-binkies-on-the-lake-rochester?adjust_creative=Qauz7cdm5F8D_pDp7A48cQ&utm_campaign=yelp_api_v3&utm_medium=api_v3_business_search&utm_source=Qauz7cdm5F8D_pDp7A48cQ", "review_count": 135, "categories": [{"alias": "newamerican", "title": "American (New)"}, {"alias": "sportsbars", "title": "Sports Bars"}, {"alias": "pubs", "title": "Pubs"}], "rating": 3.5, "coordinates": {"latitude": 43.9734573364258, "longitude": -92.4560241699219}, "transactions": ["delivery"], "price": "$$", "location": {"address1": "247 Woodlake Dr SE", "address2": null, "address3": "", "city": "Rochester", "zip_code": "55904", "country": "US", "state": "MN", "display_address": ["247 Woodlake Dr SE", "Rochester, MN 55904"]}, "phone": "+15074241227", "display_phone": "(507) 424-1227", "distance": 5164.457518828037}, {"id": "8xrsdu4bjBJQgNofZEaBaw", "alias": "happy-china-byron", "name": "Happy China", "image_url": "https://s3-media1.fl.yelpcdn.com/bphoto/gZ3Sg4Y05hwPYk6LsKRqBQ/o.jpg", "is_closed": false, "url": "https://www.yelp.com/biz/happy-china-byron?adjust_creative=Qauz7cdm5F8D_pDp7A48cQ&utm_campaign=yelp_api_v3&utm_medium=api_v3_business_search&utm_source=Qauz7cdm5F8D_pDp7A48cQ", "review_count": 12, "categories": [{"alias": "chinese", "title": "Chinese"}], "rating": 3.5, "coordinates": {"latitude": 44.032648, "longitude": -92.618035}, "transactions": [], "price": "$", "location": {"address1": "1067 4th St NE", "address2": "Ste 450", "address3": null, "city": "Byron", "zip_code": "55920", "country": "US", "state": "MN", "display_address": ["1067 4th St NE", "Ste 450", "Byron, MN 55920"]}, "phone": "+15077759995", "display_phone": "(507) 775-9995", "distance": 11268.770376404604}, {"id": "mUWiJUbQG3thROxrO47g7w", "alias": "applebees-grill-bar-rochester-4", "name": "Applebee's Grill + Bar", "image_url": "https://s3-media3.fl.yelpcdn.com/bphoto/AOuPkzJ7vvtFz90ggU4mNw/o.jpg", "is_closed": false, "url": "https://www.yelp.com/biz/applebees-grill-bar-rochester-4?adjust_creative=Qauz7cdm5F8D_pDp7A48cQ&utm_campaign=yelp_api_v3&utm_medium=api_v3_business_search&utm_source=Qauz7cdm5F8D_pDp7A48cQ", "review_count": 46, "categories": [{"alias": "sportsbars", "title": "Sports Bars"}, {"alias": "burgers", "title": "Burgers"}, {"alias": "tradamerican", "title": "American (Traditional)"}], "rating": 2.5, "coordinates": {"latitude": 44.004912, "longitude": -92.47855}, "transactions": ["delivery", "pickup"], "price": "$$", "location": {"address1": "320 Apache Mall", "address2": "", "address3": "", "city": "Rochester", "zip_code": "55902", "country": "US", "state": "MN", "display_address": ["320 Apache Mall", "Rochester, MN 55902"]}, "phone": "+15072520155", "display_phone": "(507) 252-0155", "distance": 1340.7995871933815}, {"id": "5z9vRlvuWqD-mZqWBSyFag", "alias": "wild-bills-sports-saloon-rochester", "name": "Wild Bill's Sports Saloon", "image_url": "https://s3-media2.fl.yelpcdn.com/bphoto/I1dAIDDMXcRGGW-qBNcm5g/o.jpg", "is_closed": false, "url": "https://www.yelp.com/biz/wild-bills-sports-saloon-rochester?adjust_creative=Qauz7cdm5F8D_pDp7A48cQ&utm_campaign=yelp_api_v3&utm_medium=api_v3_business_search&utm_source=Qauz7cdm5F8D_pDp7A48cQ", "review_count": 105, "categories": [{"alias": "sportsbars", "title": "Sports Bars"}, {"alias": "burgers", "title": "Burgers"}, {"alias": "tradamerican", "title": "American (Traditional)"}], "rating": 3.0, "coordinates": {"latitude": 44.0267723635969, "longitude": -92.4867660196619}, "transactions": ["delivery", "pickup"], "price": "$$", "location": {"address1": "300 17th Ave NW", "address2": "", "address3": "", "city": "Rochester", "zip_code": "55901", "country": "US", "state": "MN", "display_address": ["300 17th Ave NW", "Rochester, MN 55901"]}, "phone": "+15072268601", "display_phone": "(507) 226-8601", "distance": 1262.9317616373228}, {"id": "y8CPRVK9jH7FHs1fMqVSdw", "alias": "trader-joes-rochester-2", "name": "Trader Joe's", "image_url": "https://s3-media4.fl.yelpcdn.com/bphoto/GlS3GRsOLfqYiyJhYPrUOw/o.jpg", "is_closed": false, "url": "https://www.yelp.com/biz/trader-joes-rochester-2?adjust_creative=Qauz7cdm5F8D_pDp7A48cQ&utm_campaign=yelp_api_v3&utm_medium=api_v3_business_search&utm_source=Qauz7cdm5F8D_pDp7A48cQ", "review_count": 46, "categories": [{"alias": "grocery", "title": "Grocery"}], "rating": 4.5, "coordinates": {"latitude": 44.00033, "longitude": -92.48021}, "transactions": [], "price": "$$", "location": {"address1": "1200 16th St SW", "address2": "", "address3": "", "city": "Rochester", "zip_code": "55902", "country": "US", "state": "MN", "display_address": ["1200 16th St SW", "Rochester, MN 55902"]}, "phone": "+15072814411", "display_phone": "(507) 281-4411", "distance": 1857.1768111827425}, {"id": "4FQgMNsFSynDllV04HMPLg", "alias": "the-barbershop-rochester", "name": "The Barbershop", "image_url": "https://s3-media4.fl.yelpcdn.com/bphoto/60D3N_2cYAHplzT_u4qqBQ/o.jpg", "is_closed": false, "url": "https://www.yelp.com/biz/the-barbershop-rochester?adjust_creative=Qauz7cdm5F8D_pDp7A48cQ&utm_campaign=yelp_api_v3&utm_medium=api_v3_business_search&utm_source=Qauz7cdm5F8D_pDp7A48cQ", "review_count": 10, "categories": [{"alias": "barbers", "title": "Barbers"}], "rating": 4.5, "coordinates": {"latitude": 43.98141, "longitude": -92.45977}, "transactions": [], "price": "$", "location": {"address1": "221 SE S 28th St", "address2": "", "address3": "", "city": "Rochester", "zip_code": "55904", "country": "US", "state": "MN", "display_address": ["221 SE S 28th St", "Rochester, MN 55904"]}, "phone": "+15072827788", "display_phone": "(507) 282-7788", "distance": 4236.561564616395}, {"id": "RkgxuYCs_kpRZPMKO9BPCA", "alias": "cb3-burgers-and-brews-rochester", "name": "CB3 Burgers & Brews", "image_url": "https://s3-media2.fl.yelpcdn.com/bphoto/P1iwbN4Hh2CzAbHYGi9Ekw/o.jpg", "is_closed": false, "url": "https://www.yelp.com/biz/cb3-burgers-and-brews-rochester?adjust_creative=Qauz7cdm5F8D_pDp7A48cQ&utm_campaign=yelp_api_v3&utm_medium=api_v3_business_search&utm_source=Qauz7cdm5F8D_pDp7A48cQ", "review_count": 71, "categories": [{"alias": "newamerican", "title": "American (New)"}, {"alias": "burgers", "title": "Burgers"}, {"alias": "sportsbars", "title": "Sports Bars"}], "rating": 2.5, "coordinates": {"latitude": 44.0235141, "longitude": -92.4682329}, "transactions": [], "price": "$$", "location": {"address1": "W Center & 4th Ave NW", "address2": "", "address3": "", "city": "Rochester", "zip_code": "55901", "country": "US", "state": "MN", "display_address": ["W Center & 4th Ave NW", "Rochester, MN 55901"]}, "phone": "+15073611910", "display_phone": "(507) 361-1910", "distance": 1114.584134261328}, {"id": "8cYa3RGHozMVCGjr19Tjyw", "alias": "hy-vee-rochester-3", "name": "Hy-Vee", "image_url": "https://s3-media2.fl.yelpcdn.com/bphoto/5XjmFEOSBOYjgFcqcVSBHw/o.jpg", "is_closed": false, "url": "https://www.yelp.com/biz/hy-vee-rochester-3?adjust_creative=Qauz7cdm5F8D_pDp7A48cQ&utm_campaign=yelp_api_v3&utm_medium=api_v3_business_search&utm_source=Qauz7cdm5F8D_pDp7A48cQ", "review_count": 34, "categories": [{"alias": "grocery", "title": "Grocery"}], "rating": 3.5, "coordinates": {"latitude": 44.06037, "longitude": -92.46938}, "transactions": ["delivery", "pickup"], "price": "$$", "location": {"address1": "500 37th St NW", "address2": "", "address3": "", "city": "Rochester", "zip_code": "55901", "country": "US", "state": "MN", "display_address": ["500 37th St NW", "Rochester, MN 55901"]}, "phone": "+15072891815", "display_phone": "(507) 289-1815", "distance": 4816.470626589801}, {"id": "Fi0gIph_MEgpqnyEliRg8Q", "alias": "sport-clips-haircuts-of-rochester-windsor-retail-center-rochester", "name": "Sport Clips Haircuts of Rochester Windsor Retail Center", "image_url": "https://s3-media3.fl.yelpcdn.com/bphoto/cYpPEVIFHXG90Oy8Ex5cxw/o.jpg", "is_closed": false, "url": "https://www.yelp.com/biz/sport-clips-haircuts-of-rochester-windsor-retail-center-rochester?adjust_creative=Qauz7cdm5F8D_pDp7A48cQ&utm_campaign=yelp_api_v3&utm_medium=api_v3_business_search&utm_source=Qauz7cdm5F8D_pDp7A48cQ", "review_count": 6, "categories": [{"alias": "menshair", "title": "Men's Hair Salons"}, {"alias": "barbers", "title": "Barbers"}], "rating": 2.5, "coordinates": {"latitude": 44.0057248677443, "longitude": -92.468737}, "transactions": [], "price": "$$$", "location": {"address1": "414 Crossroads Dr", "address2": null, "address3": "", "city": "Rochester", "zip_code": "55902", "country": "US", "state": "MN", "display_address": ["414 Crossroads Dr", "Rochester, MN 55902"]}, "phone": "+15072813798", "display_phone": "(507) 281-3798", "distance": 1486.4610722467714}, {"id": "sLaEWZ-O_kv7yDfZgkTYVg", "alias": "panera-bread-rochester-2", "name": "Panera Bread", "image_url": "https://s3-media3.fl.yelpcdn.com/bphoto/Tf2LDVtQe53mQgUqmzRrFQ/o.jpg", "is_closed": false, "url": "https://www.yelp.com/biz/panera-bread-rochester-2?adjust_creative=Qauz7cdm5F8D_pDp7A48cQ&utm_campaign=yelp_api_v3&utm_medium=api_v3_business_search&utm_source=Qauz7cdm5F8D_pDp7A48cQ", "review_count": 27, "categories": [{"alias": "sandwiches", "title": "Sandwiches"}, {"alias": "salad", "title": "Salad"}, {"alias": "soup", "title": "Soup"}], "rating": 3.5, "coordinates": {"latitude": 44.0619979738136, "longitude": -92.4998586230164}, "transactions": ["delivery", "pickup"], "price": "$", "location": {"address1": "3780 Market Place Drive NW", "address2": "Suite 114", "address3": "", "city": "Rochester", "zip_code": "55901", "country": "US", "state": "MN", "display_address": ["3780 Market Place Drive NW", "Suite 114", "Rochester, MN 55901"]}, "phone": "+15072809185", "display_phone": "(507) 280-9185", "distance": 5282.627355999036}, {"id": "t3UmDYtw38D9-NkO00j5eA", "alias": "buffalo-wild-wings-rochester-2", "name": "Buffalo Wild Wings", "image_url": "https://s3-media1.fl.yelpcdn.com/bphoto/p6NpM1el2oVRGub2GE-6tQ/o.jpg", "is_closed": false, "url": "https://www.yelp.com/biz/buffalo-wild-wings-rochester-2?adjust_creative=Qauz7cdm5F8D_pDp7A48cQ&utm_campaign=yelp_api_v3&utm_medium=api_v3_business_search&utm_source=Qauz7cdm5F8D_pDp7A48cQ", "review_count": 47, "categories": [{"alias": "chicken_wings", "title": "Chicken Wings"}, {"alias": "tradamerican", "title": "American (Traditional)"}, {"alias": "sportsbars", "title": "Sports Bars"}], "rating": 3.0, "coordinates": {"latitude": 44.0773649, "longitude": -92.5159903}, "transactions": [], "price": "$$", "location": {"address1": "3458 55th St NW", "address2": "", "address3": "", "city": "Rochester", "zip_code": "55901", "country": "US", "state": "MN", "display_address": ["3458 55th St NW", "Rochester, MN 55901"]}, "phone": "+15075360717", "display_phone": "(507) 536-0717", "distance": 7344.422480650192}]